{
  "success": true,
  "data": {
    "total_trips": [
      {
        "trip_count": "109829"
      }
    ],
    "total_stations": [
      {
        "start_station_count": "20",
        "end_station_count": "19"
      }
    ],
    "top_start_stations": [
      {
        "start_station_name": "University Ave & 57th St",
        "start_lat": 41.7914780247845,
        "start_lng": -87.5998613907811,
        "start_station_count": "15310"
      },
      {
        "start_station_name": "Ellis Ave & 60th St",
        "start_lat": 41.785097878259236,
        "start_lng": -87.60107310000095,
        "start_station_count": "14665"
      },
      {
        "start_station_name": "Ellis Ave & 55th St",
        "start_lat": 41.794300680201204,
        "start_lng": -87.60144952674779,
        "start_station_count": "10163"
      },
      {
        "start_station_name": "Kimbark Ave & 53rd St",
        "start_lat": 41.799455523625255,
        "start_lng": -87.59477804138663,
        "start_station_count": "7396"
      },
      {
        "start_station_name": "Blackstone Ave & 59th St",
        "start_lat": 41.787878629343936,
        "start_lng": -87.59046386103597,
        "start_station_count": "7052"
      },
      {
        "start_station_name": "Ellis Ave & 58th St",
        "start_lat": 41.78874615633002,
        "start_lng": -87.60133163939045,
        "start_station_count": "5281"
      },
      {
        "start_station_name": "Woodlawn Ave & 55th St",
        "start_lat": 41.7952641489206,
        "start_lng": -87.59647168728964,
        "start_station_count": "4844"
      },
      {
        "start_station_name": "University Ave & 59th St",
        "start_lat": 41.78787782735418,
        "start_lng": -87.59890724750196,
        "start_station_count": "4583"
      },
      {
        "start_station_name": "Woodlawn Ave & 58th St",
        "start_lat": 41.789381562659216,
        "start_lng": -87.59647945620267,
        "start_station_count": "4538"
      },
      {
        "start_station_name": "Shore Dr & 55th St",
        "start_lat": 41.795211960166185,
        "start_lng": -87.58071757995955,
        "start_station_count": "4125"
      },
      {
        "start_station_name": "Lake Park Ave & 56th St",
        "start_lat": 41.79254739531947,
        "start_lng": -87.58765328636012,
        "start_station_count": "3669"
      },
      {
        "start_station_name": "Ellis Ave & 53rd St",
        "start_lat": 41.79933482374108,
        "start_lng": -87.60095883338651,
        "start_station_count": "3134"
      },
      {
        "start_station_name": "Lake Park Ave & 53rd St",
        "start_lat": 41.79949270082065,
        "start_lng": -87.58645162847812,
        "start_station_count": "2670"
      },
      {
        "start_station_name": "Drexel Ave & 60th St",
        "start_lat": 41.785860048308415,
        "start_lng": -87.6045539227665,
        "start_station_count": "2644"
      },
      {
        "start_station_name": "Harper Ave & 59th St",
        "start_lat": 41.78794268762324,
        "start_lng": -87.58831509043667,
        "start_station_count": "1434"
      },
      {
        "start_station_name": "Griffin Museum of Science and Industry",
        "start_lat": 41.79172856432922,
        "start_lng": -87.5839454434832,
        "start_station_count": "1385"
      },
      {
        "start_station_name": "Public Rack - Hyde Park Blvd & 55th St",
        "start_lat": 41.795013006647935,
        "start_lng": -87.58411517668583,
        "start_station_count": "213"
      },
      {
        "start_station_name": "Public Rack - Hyde Park Blvd & 53rd St",
        "start_lat": 41.79947380310639,
        "start_lng": -87.58420693442491,
        "start_station_count": "127"
      },
      {
        "start_station_name": "Public Rack - Harold Washington Park",
        "start_lat": 41.80107853384378,
        "start_lng": -87.58478079773442,
        "start_station_count": "32"
      },
      {
        "start_station_name": "Cornell Ave & Hyde Park Blvd",
        "start_lat": 41.802052339,
        "start_lng": -87.58669646566666,
        "start_station_count": "3"
      }
    ],
    "top_end_stations": [
      {
        "end_station_name": "University Ave & 57th St",
        "end_lat": 41.7914780247845,
        "end_lng": -87.5998613907811,
        "end_station_count": "15558"
      },
      {
        "end_station_name": "Ellis Ave & 60th St",
        "end_lat": 41.785097878259236,
        "end_lng": -87.60107310000095,
        "end_station_count": "14200"
      },
      {
        "end_station_name": "Ellis Ave & 55th St",
        "end_lat": 41.794300680201204,
        "end_lng": -87.60144952674779,
        "end_station_count": "10448"
      },
      {
        "end_station_name": "Kimbark Ave & 53rd St",
        "end_lat": 41.799455523625255,
        "end_lng": -87.59477804138663,
        "end_station_count": "7164"
      },
      {
        "end_station_name": "Blackstone Ave & 59th St",
        "end_lat": 41.787878629343936,
        "end_lng": -87.59046386103597,
        "end_station_count": "6687"
      },
      {
        "end_station_name": "Ellis Ave & 58th St",
        "end_lat": 41.78874615633002,
        "end_lng": -87.60133163939045,
        "end_station_count": "5273"
      },
      {
        "end_station_name": "Woodlawn Ave & 58th St",
        "end_lat": 41.789381562659216,
        "end_lng": -87.59647945620267,
        "end_station_count": "4809"
      },
      {
        "end_station_name": "University Ave & 59th St",
        "end_lat": 41.78787782735418,
        "end_lng": -87.59890724750196,
        "end_station_count": "4756"
      },
      {
        "end_station_name": "Woodlawn Ave & 55th St",
        "end_lat": 41.7952641489206,
        "end_lng": -87.59647168728964,
        "end_station_count": "4219"
      },
      {
        "end_station_name": "Lake Park Ave & 56th St",
        "end_lat": 41.79254739531947,
        "end_lng": -87.58765328636012,
        "end_station_count": "4021"
      },
      {
        "end_station_name": "Shore Dr & 55th St",
        "end_lat": 41.795211960166185,
        "end_lng": -87.58071757995955,
        "end_station_count": "3941"
      },
      {
        "end_station_name": "Ellis Ave & 53rd St",
        "end_lat": 41.79933482374108,
        "end_lng": -87.60095883338651,
        "end_station_count": "3087"
      },
      {
        "end_station_name": "Drexel Ave & 60th St",
        "end_lat": 41.785860048308415,
        "end_lng": -87.6045539227665,
        "end_station_count": "2894"
      },
      {
        "end_station_name": "Lake Park Ave & 53rd St",
        "end_lat": 41.79949270082065,
        "end_lng": -87.58645162847812,
        "end_station_count": "2794"
      },
      {
        "end_station_name": "Griffin Museum of Science and Industry",
        "end_lat": 41.79172856432922,
        "end_lng": -87.5839454434832,
        "end_station_count": "1139"
      },
      {
        "end_station_name": "Harper Ave & 59th St",
        "end_lat": 41.78794268762324,
        "end_lng": -87.58831509043667,
        "end_station_count": "1073"
      },
      {
        "end_station_name": "Public Rack - Hyde Park Blvd & 55th St",
        "end_lat": 41.795013006647935,
        "end_lng": -87.58411517668583,
        "end_station_count": "238"
      },
      {
        "end_station_name": "Public Rack - Hyde Park Blvd & 53rd St",
        "end_lat": 41.79947380310639,
        "end_lng": -87.58420693442491,
        "end_station_count": "133"
      },
      {
        "end_station_name": "Public Rack - Harold Washington Park",
        "end_lat": 41.80107853384378,
        "end_lng": -87.58478079773442,
        "end_station_count": "35"
      }
    ],
    "member_breakdown": [
      {
        "month": "10",
        "member_count": "19796",
        "casual_count": "6299",
        "member_percentage": "75.86",
        "casual_percentage": "24.14"
      },
      {
        "month": "11",
        "member_count": "12421",
        "casual_count": "3236",
        "member_percentage": "79.33",
        "casual_percentage": "20.67"
      },
      {
        "month": "12",
        "member_count": "4696",
        "casual_count": "954",
        "member_percentage": "83.12",
        "casual_percentage": "16.88"
      },
      {
        "month": "1",
        "member_count": "6453",
        "casual_count": "1284",
        "member_percentage": "83.40",
        "casual_percentage": "16.60"
      },
      {
        "month": "2",
        "member_count": "7167",
        "casual_count": "1549",
        "member_percentage": "82.23",
        "casual_percentage": "17.77"
      },
      {
        "month": "3",
        "member_count": "8497",
        "casual_count": "2228",
        "member_percentage": "79.23",
        "casual_percentage": "20.77"
      },
      {
        "month": "4",
        "member_count": "13251",
        "casual_count": "3777",
        "member_percentage": "77.82",
        "casual_percentage": "22.18"
      },
      {
        "month": "5",
        "member_count": "13397",
        "casual_count": "4824",
        "member_percentage": "73.53",
        "casual_percentage": "26.47"
      }
    ],
    "member_avg_duration": [
      {
        "user_type": "casual",
        "avg_duration": "10.03"
      },
      {
        "user_type": "member",
        "avg_duration": "7.32"
      }
    ],
    "bike_types": [
      {
        "electric_bike_count": "46335",
        "classic_bike_count": "63494",
        "electric_bike_percentage": "42.19",
        "classic_bike_percentage": "57.81",
        "total_trips": "109829"
      }
    ],
    "bike_breakdown": [
      {
        "rideable_type": "classic_bike",
        "trip_count": "63494",
        "percentage": "57.81"
      },
      {
        "rideable_type": "electric_bike",
        "trip_count": "46335",
        "percentage": "42.19"
      }
    ],
    "bike_usage_by_member": [
      {
        "rideable_type": "classic_bike",
        "member_count": "50569",
        "casual_count": "12925",
        "member_percentage": "79.64",
        "casual_percentage": "20.36"
      },
      {
        "rideable_type": "electric_bike",
        "member_count": "35109",
        "casual_count": "11226",
        "member_percentage": "75.77",
        "casual_percentage": "24.23"
      }
    ],
    "popular_days": [
      {
        "day_of_week": "Monday   ",
        "trip_count": "16413"
      },
      {
        "day_of_week": "Tuesday  ",
        "trip_count": "17159"
      },
      {
        "day_of_week": "Wednesday",
        "trip_count": "16732"
      },
      {
        "day_of_week": "Thursday ",
        "trip_count": "17001"
      },
      {
        "day_of_week": "Friday   ",
        "trip_count": "17183"
      },
      {
        "day_of_week": "Saturday ",
        "trip_count": "13069"
      },
      {
        "day_of_week": "Sunday   ",
        "trip_count": "12272"
      }
    ],
    "trips_by_hour": [
      {
        "month": "10",
        "overnight_trips": "556",
        "morning_trips": "6965",
        "afternoon_trips": "12805",
        "evening_trips": "5769"
      },
      {
        "month": "11",
        "overnight_trips": "389",
        "morning_trips": "4441",
        "afternoon_trips": "7356",
        "evening_trips": "3471"
      },
      {
        "month": "12",
        "overnight_trips": "111",
        "morning_trips": "1594",
        "afternoon_trips": "2766",
        "evening_trips": "1179"
      },
      {
        "month": "1",
        "overnight_trips": "154",
        "morning_trips": "2177",
        "afternoon_trips": "3710",
        "evening_trips": "1696"
      },
      {
        "month": "2",
        "overnight_trips": "144",
        "morning_trips": "2556",
        "afternoon_trips": "4096",
        "evening_trips": "1920"
      },
      {
        "month": "3",
        "overnight_trips": "215",
        "morning_trips": "2967",
        "afternoon_trips": "5045",
        "evening_trips": "2498"
      },
      {
        "month": "4",
        "overnight_trips": "304",
        "morning_trips": "4533",
        "afternoon_trips": "7846",
        "evening_trips": "4345"
      },
      {
        "month": "5",
        "overnight_trips": "488",
        "morning_trips": "4624",
        "afternoon_trips": "8647",
        "evening_trips": "4462"
      }
    ],
    "monthly_stats": [
      {
        "month": "10",
        "trip_count": "26095",
        "avg_duration_min": "8.55",
        "electric_bike": "8366",
        "classic_bike": "17729",
        "electric_percentage": "32.06",
        "classic_percentage": "67.94"
      },
      {
        "month": "11",
        "trip_count": "15657",
        "avg_duration_min": "8.18",
        "electric_bike": "4412",
        "classic_bike": "11245",
        "electric_percentage": "28.18",
        "classic_percentage": "71.82"
      },
      {
        "month": "12",
        "trip_count": "5650",
        "avg_duration_min": "8.72",
        "electric_bike": "1903",
        "classic_bike": "3747",
        "electric_percentage": "33.68",
        "classic_percentage": "66.32"
      },
      {
        "month": "1",
        "trip_count": "7737",
        "avg_duration_min": "7.44",
        "electric_bike": "4170",
        "classic_bike": "3567",
        "electric_percentage": "53.90",
        "classic_percentage": "46.10"
      },
      {
        "month": "2",
        "trip_count": "8716",
        "avg_duration_min": "7.20",
        "electric_bike": "4781",
        "classic_bike": "3935",
        "electric_percentage": "54.85",
        "classic_percentage": "45.15"
      },
      {
        "month": "3",
        "trip_count": "10725",
        "avg_duration_min": "8.12",
        "electric_bike": "5367",
        "classic_bike": "5358",
        "electric_percentage": "50.04",
        "classic_percentage": "49.96"
      },
      {
        "month": "4",
        "trip_count": "17028",
        "avg_duration_min": "7.63",
        "electric_bike": "8140",
        "classic_bike": "8888",
        "electric_percentage": "47.80",
        "classic_percentage": "52.20"
      },
      {
        "month": "5",
        "trip_count": "18221",
        "avg_duration_min": "7.68",
        "electric_bike": "9196",
        "classic_bike": "9025",
        "electric_percentage": "50.47",
        "classic_percentage": "49.53"
      }
    ],
    "avg_duration": [
      {
        "avg_duration_min": "7.99"
      }
    ],
    "avg_distance": [
      {
        "start_station_name": "Shore Dr & 55th St",
        "avg_distance_miles": "0.78"
      },
      {
        "start_station_name": "Lake Park Ave & 53rd St",
        "avg_distance_miles": "0.73"
      },
      {
        "start_station_name": "Public Rack - Hyde Park Blvd & 55th St",
        "avg_distance_miles": "0.68"
      },
      {
        "start_station_name": "Cornell Ave & Hyde Park Blvd",
        "avg_distance_miles": "0.64"
      },
      {
        "start_station_name": "Public Rack - Harold Washington Park",
        "avg_distance_miles": "0.63"
      },
      {
        "start_station_name": "Public Rack - Hyde Park Blvd & 53rd St",
        "avg_distance_miles": "0.63"
      },
      {
        "start_station_name": "Kimbark Ave & 53rd St",
        "avg_distance_miles": "0.61"
      },
      {
        "start_station_name": "Drexel Ave & 60th St",
        "avg_distance_miles": "0.60"
      },
      {
        "start_station_name": "Lake Park Ave & 56th St",
        "avg_distance_miles": "0.59"
      },
      {
        "start_station_name": "Ellis Ave & 53rd St",
        "avg_distance_miles": "0.58"
      },
      {
        "start_station_name": "Harper Ave & 59th St",
        "avg_distance_miles": "0.57"
      },
      {
        "start_station_name": "Griffin Museum of Science and Industry",
        "avg_distance_miles": "0.55"
      },
      {
        "start_station_name": "Ellis Ave & 55th St",
        "avg_distance_miles": "0.54"
      },
      {
        "start_station_name": "Blackstone Ave & 59th St",
        "avg_distance_miles": "0.53"
      },
      {
        "start_station_name": "Ellis Ave & 60th St",
        "avg_distance_miles": "0.51"
      },
      {
        "start_station_name": "Woodlawn Ave & 58th St",
        "avg_distance_miles": "0.50"
      },
      {
        "start_station_name": "Ellis Ave & 58th St",
        "avg_distance_miles": "0.49"
      },
      {
        "start_station_name": "University Ave & 57th St",
        "avg_distance_miles": "0.49"
      },
      {
        "start_station_name": "Woodlawn Ave & 55th St",
        "avg_distance_miles": "0.47"
      },
      {
        "start_station_name": "University Ave & 59th St",
        "avg_distance_miles": "0.44"
      }
    ],
    "common_routes": [
      {
        "start_station_name": "Ellis Ave & 60th St",
        "start_lat": 41.78509794949125,
        "start_lng": -87.60107302801309,
        "end_station_name": "University Ave & 57th St",
        "end_lat": 41.79147804311062,
        "end_lng": -87.5998612951594,
        "trip_count": "3500"
      },
      {
        "start_station_name": "University Ave & 57th St",
        "start_lat": 41.79147804311062,
        "start_lng": -87.5998612951594,
        "end_station_name": "Ellis Ave & 60th St",
        "end_lat": 41.78509794949125,
        "end_lng": -87.60107302801309,
        "trip_count": "3316"
      },
      {
        "start_station_name": "Ellis Ave & 60th St",
        "start_lat": 41.78509794949125,
        "start_lng": -87.60107302801309,
        "end_station_name": "Ellis Ave & 55th St",
        "end_lat": 41.79430069717537,
        "end_lng": -87.60144953611669,
        "trip_count": "3012"
      },
      {
        "start_station_name": "Ellis Ave & 55th St",
        "start_lat": 41.79430069717537,
        "start_lng": -87.60144953611669,
        "end_station_name": "Ellis Ave & 60th St",
        "end_lat": 41.78509794949125,
        "end_lng": -87.60107302801309,
        "trip_count": "2734"
      },
      {
        "start_station_name": "Blackstone Ave & 59th St",
        "start_lat": 41.78787875949564,
        "start_lng": -87.59046394681454,
        "end_station_name": "University Ave & 57th St",
        "end_lat": 41.79147804311062,
        "end_lng": -87.5998612951594,
        "trip_count": "1718"
      },
      {
        "start_station_name": "University Ave & 57th St",
        "start_lat": 41.79147804311062,
        "start_lng": -87.5998612951594,
        "end_station_name": "Blackstone Ave & 59th St",
        "end_lat": 41.78787875949564,
        "end_lng": -87.59046394681454,
        "trip_count": "1475"
      },
      {
        "start_station_name": "University Ave & 57th St",
        "start_lat": 41.79147804311062,
        "start_lng": -87.5998612951594,
        "end_station_name": "Kimbark Ave & 53rd St",
        "end_lat": 41.79945531308489,
        "end_lng": -87.59477826068473,
        "trip_count": "1342"
      },
      {
        "start_station_name": "Kimbark Ave & 53rd St",
        "start_lat": 41.79945531308489,
        "start_lng": -87.59477826068473,
        "end_station_name": "University Ave & 57th St",
        "end_lat": 41.79147804311062,
        "end_lng": -87.5998612951594,
        "trip_count": "1326"
      },
      {
        "start_station_name": "University Ave & 57th St",
        "start_lat": 41.79147804311062,
        "start_lng": -87.5998612951594,
        "end_station_name": "Lake Park Ave & 56th St",
        "end_lat": 41.792685209319224,
        "end_lng": -87.58767883581184,
        "trip_count": "1236"
      },
      {
        "start_station_name": "Ellis Ave & 60th St",
        "start_lat": 41.78509794949125,
        "start_lng": -87.60107302801309,
        "end_station_name": "Ellis Ave & 58th St",
        "end_lat": 41.78874626382695,
        "end_lng": -87.60133132948604,
        "trip_count": "1061"
      }
    ],
    "trips_not_at_stations": [
      {
        "stations": "No Station",
        "trip_count": "16561"
      }
    ],
    "total_distance": [
      {
        "total_distance_miles": "58413.94"
      }
    ],
    "total_time": [
      {
        "total_minutes_on_bikes": "878052.22",
        "total_hours_on_bikes": "14634.20",
        "total_trips": "109828"
      }
    ],
    "start_stations_after_9pm": [
      {
        "start_station_name": "University Ave & 57th St",
        "trip_count": "1317"
      },
      {
        "start_station_name": "Ellis Ave & 60th St",
        "trip_count": "1054"
      },
      {
        "start_station_name": "Ellis Ave & 55th St",
        "trip_count": "786"
      },
      {
        "start_station_name": "Kimbark Ave & 53rd St",
        "trip_count": "492"
      },
      {
        "start_station_name": "Woodlawn Ave & 55th St",
        "trip_count": "403"
      },
      {
        "start_station_name": "Blackstone Ave & 59th St",
        "trip_count": "319"
      },
      {
        "start_station_name": "University Ave & 59th St",
        "trip_count": "261"
      },
      {
        "start_station_name": "Ellis Ave & 58th St",
        "trip_count": "247"
      },
      {
        "start_station_name": "Drexel Ave & 60th St",
        "trip_count": "242"
      },
      {
        "start_station_name": "Woodlawn Ave & 58th St",
        "trip_count": "230"
      },
      {
        "start_station_name": "Shore Dr & 55th St",
        "trip_count": "183"
      },
      {
        "start_station_name": "Ellis Ave & 53rd St",
        "trip_count": "158"
      },
      {
        "start_station_name": "Lake Park Ave & 53rd St",
        "trip_count": "118"
      },
      {
        "start_station_name": "Lake Park Ave & 56th St",
        "trip_count": "117"
      },
      {
        "start_station_name": "Harper Ave & 59th St",
        "trip_count": "45"
      },
      {
        "start_station_name": "Griffin Museum of Science and Industry",
        "trip_count": "27"
      },
      {
        "start_station_name": "Public Rack - Hyde Park Blvd & 55th St",
        "trip_count": "16"
      },
      {
        "start_station_name": "Public Rack - Hyde Park Blvd & 53rd St",
        "trip_count": "11"
      },
      {
        "start_station_name": "Public Rack - Harold Washington Park",
        "trip_count": "3"
      }
    ],
    "end_stations_after_9pm": [
      {
        "end_station_name": "Ellis Ave & 60th St",
        "trip_count": "1631"
      },
      {
        "end_station_name": "University Ave & 57th St",
        "trip_count": "770"
      },
      {
        "end_station_name": "Blackstone Ave & 59th St",
        "trip_count": "661"
      },
      {
        "end_station_name": "Ellis Ave & 55th St",
        "trip_count": "592"
      },
      {
        "end_station_name": "Kimbark Ave & 53rd St",
        "trip_count": "555"
      },
      {
        "end_station_name": "Woodlawn Ave & 55th St",
        "trip_count": "376"
      },
      {
        "end_station_name": "Shore Dr & 55th St",
        "trip_count": "251"
      },
      {
        "end_station_name": "Ellis Ave & 53rd St",
        "trip_count": "229"
      },
      {
        "end_station_name": "Woodlawn Ave & 58th St",
        "trip_count": "155"
      },
      {
        "end_station_name": "Lake Park Ave & 56th St",
        "trip_count": "139"
      },
      {
        "end_station_name": "Lake Park Ave & 53rd St",
        "trip_count": "109"
      },
      {
        "end_station_name": "Drexel Ave & 60th St",
        "trip_count": "107"
      },
      {
        "end_station_name": "University Ave & 59th St",
        "trip_count": "103"
      },
      {
        "end_station_name": "Harper Ave & 59th St",
        "trip_count": "88"
      },
      {
        "end_station_name": "Ellis Ave & 58th St",
        "trip_count": "82"
      },
      {
        "end_station_name": "Griffin Museum of Science and Industry",
        "trip_count": "53"
      },
      {
        "end_station_name": "Public Rack - Hyde Park Blvd & 53rd St",
        "trip_count": "22"
      },
      {
        "end_station_name": "Public Rack - Hyde Park Blvd & 55th St",
        "trip_count": "11"
      }
    ],
    "member_casual_user_count": [
      {
        "month": "10",
        "member_count": "19796",
        "casual_count": "6299",
        "member_percentage": "75.86",
        "casual_percentage": "24.14"
      },
      {
        "month": "11",
        "member_count": "12421",
        "casual_count": "3236",
        "member_percentage": "79.33",
        "casual_percentage": "20.67"
      },
      {
        "month": "12",
        "member_count": "4696",
        "casual_count": "954",
        "member_percentage": "83.12",
        "casual_percentage": "16.88"
      },
      {
        "month": "1",
        "member_count": "6453",
        "casual_count": "1284",
        "member_percentage": "83.40",
        "casual_percentage": "16.60"
      },
      {
        "month": "2",
        "member_count": "7167",
        "casual_count": "1549",
        "member_percentage": "82.23",
        "casual_percentage": "17.77"
      },
      {
        "month": "3",
        "member_count": "8497",
        "casual_count": "2228",
        "member_percentage": "79.23",
        "casual_percentage": "20.77"
      },
      {
        "month": "4",
        "member_count": "13251",
        "casual_count": "3777",
        "member_percentage": "77.82",
        "casual_percentage": "22.18"
      },
      {
        "month": "5",
        "member_count": "13397",
        "casual_count": "4824",
        "member_percentage": "73.53",
        "casual_percentage": "26.47"
      }
    ],
    "time_trips": [
      {
        "hour_of_day": "0",
        "ride_count": "993"
      },
      {
        "hour_of_day": "1",
        "ride_count": "514"
      },
      {
        "hour_of_day": "2",
        "ride_count": "242"
      },
      {
        "hour_of_day": "3",
        "ride_count": "125"
      },
      {
        "hour_of_day": "4",
        "ride_count": "101"
      },
      {
        "hour_of_day": "5",
        "ride_count": "386"
      },
      {
        "hour_of_day": "6",
        "ride_count": "987"
      },
      {
        "hour_of_day": "7",
        "ride_count": "2245"
      },
      {
        "hour_of_day": "8",
        "ride_count": "4765"
      },
      {
        "hour_of_day": "9",
        "ride_count": "7783"
      },
      {
        "hour_of_day": "10",
        "ride_count": "7024"
      },
      {
        "hour_of_day": "11",
        "ride_count": "7053"
      },
      {
        "hour_of_day": "12",
        "ride_count": "8520"
      },
      {
        "hour_of_day": "13",
        "ride_count": "8888"
      },
      {
        "hour_of_day": "14",
        "ride_count": "8137"
      },
      {
        "hour_of_day": "15",
        "ride_count": "8869"
      },
      {
        "hour_of_day": "16",
        "ride_count": "9336"
      },
      {
        "hour_of_day": "17",
        "ride_count": "8521"
      },
      {
        "hour_of_day": "18",
        "ride_count": "7597"
      },
      {
        "hour_of_day": "19",
        "ride_count": "6238"
      },
      {
        "hour_of_day": "20",
        "ride_count": "4424"
      },
      {
        "hour_of_day": "21",
        "ride_count": "3289"
      },
      {
        "hour_of_day": "22",
        "ride_count": "2215"
      },
      {
        "hour_of_day": "23",
        "ride_count": "1577"
      }
    ],
    "raw_data": true,
    "generated_at": "2025-06-12T01:27:07.601Z"
  }
}